[
  {
    "name": "Photon Dynamics, Inc.",
    "type": "Customer",
    "industry": "Industrial Manufacturing & Services",
    "street": "5970 Optical Court",
    "city": "San Jose",
    "state": "CA",
    "country": "US",
    "zip": 95138,
    "employees": 118,
    "latitude": 37.25362,
    "longitude": -121.783,
    "description": "",
    "logo": ""
  },
  {
    "name": "SRP Consulting",
    "type": "Customer",
    "industry": "Real Estate Services",
    "street": "1890, Flagstone Dr Suite 100",
    "city": "Union City",
    "state": "CA",
    "country": "US",
    "zip": 94587,
    "employees": 5,
    "latitude": 37.58665,
    "longitude": -122.015,
    "description": "",
    "logo": ""
  },
  {
    "name": "LogLogic",
    "type": "Customer",
    "industry": "Telecommunications",
    "street": "180 Rose Orchard Way Suite 200",
    "city": "San Jose",
    "state": "CA",
    "country": 0,
    "zip": 0,
    "employees": 100,
    "latitude": 37.41656,
    "longitude": -121.949,
    "description": "",
    "logo": ""
  },
  {
    "name": "Sunrise Telecom Incorporated",
    "type": "Customer",
    "industry": "Telecommunications",
    "street": "302 Enzo Drive",
    "city": "San Jose",
    "state": "CA",
    "country": "US",
    "zip": 95138,
    "employees": 362,
    "latitude": 37.25036,
    "longitude": -121.782,
    "description": "",
    "logo": ""
  },
  {
    "name": "Dividas",
    "type": "Customer",
    "industry": "Telecommunications",
    "street": 0,
    "city": "Mountain View",
    "state": "CA",
    "country": 0,
    "zip": 0,
    "employees": 0,
    "latitude": 37.38605,
    "longitude": -122.084,
    "description": "",
    "logo": ""
  },
  {
    "name": "ETIRC Aviation",
    "type": "Customer",
    "industry": "Industrial Manufacturing & Services",
    "street": 0,
    "city": "Haarle",
    "state": "AL",
    "country": "NL",
    "zip": "2012HS",
    "employees": 99,
    "latitude": 52.36077,
    "longitude": 6.382871,
    "description": "",
    "logo": ""
  },
  {
    "name": "QuadraMed Corporation",
    "type": "Customer",
    "industry": "Hospitals & Healthcare",
    "street": "12110 Sunset Hills RoadSuite 600",
    "city": "Reston",
    "state": "VA",
    "country": "US",
    "zip": 20190,
    "employees": 613,
    "latitude": 38.95529,
    "longitude": -77.3644,
    "description": "",
    "logo": ""
  },
  {
    "name": "Infosys Technologies Limited",
    "type": "Customer - Channel",
    "industry": "Retail",
    "street": "400 Crossing Blvd, Suite 101",
    "city": "Bridgewater",
    "state": "NJ",
    "country": "US",
    "zip": 807,
    "employees": 113800,
    "latitude": 40.58361,
    "longitude": -74.6112,
    "description": "",
    "logo": ""
  },
  {
    "name": "Progressive Power Group",
    "type": "Customer - Channel",
    "industry": "Construction & Building Materials",
    "street": "12601 Monarch Street",
    "city": "Garden Grove",
    "state": "CA",
    "country": "US",
    "zip": 92841,
    "employees": 100,
    "latitude": 33.77955,
    "longitude": -118.007,
    "description": "",
    "logo": ""
  },
  {
    "name": "Fuji Dynamics",
    "type": "Customer - Channel",
    "industry": "Industrial Manufacturing & Services",
    "street": "1-28-9, Aobadai",
    "city": "Meguro-ku",
    "state": "Tokyo",
    "country": "Japan",
    "zip": "153-0042",
    "employees": 186,
    "latitude": 35.64722,
    "longitude": 139.6953,
    "description": "",
    "logo": ""
  },
  {
    "name": "Shinko Service",
    "type": "Customer - Channel",
    "industry": "Industrial Manufacturing & Services",
    "street": "5-20-8, Asakusabashi",
    "city": "Taito-ku",
    "state": "Tokyo",
    "country": "Japan",
    "zip": "111-0053",
    "employees": 865,
    "latitude": 35.70139,
    "longitude": 139.7814,
    "description": "",
    "logo": ""
  },
  {
    "name": "Coast Pavement Services",
    "type": "Customer - Direct",
    "industry": "Energy & Environmental",
    "street": "10505 SW Tigard Street",
    "city": "Tigard",
    "state": "OR",
    "country": "US",
    "zip": 0,
    "employees": 35,
    "latitude": 45.43696,
    "longitude": -122.783,
    "description": "",
    "logo": ""
  },
  {
    "name": "SCREEN Graphic and Precision Solutions Co., Ltd.",
    "type": "Customer - Direct",
    "industry": "Industrial Manufacturing & Services",
    "street": "Tenjinkita-machi 1-1,Teranouchi-agaru 4-chome, Horikawa-dori, Kamigyo-ku",
    "city": "Kyoto",
    "state": "Kyoto",
    "country": "Japan",
    "zip": "602-0087",
    "employees": 10000,
    "latitude": 35.01164,
    "longitude": 135.768,
    "description": "",
    "logo": ""
  },
  {
    "name": "Happy Energy Ltd",
    "type": "Customer - Direct",
    "industry": "Energy & Environmental",
    "street": "The Innovation Centre Trevenson Road",
    "city": "Pool",
    "state": "Cornwall",
    "country": "UK",
    "zip": "TR15 3PL",
    "employees": 51,
    "latitude": 50.22737,
    "longitude": -5.27175,
    "description": "",
    "logo": ""
  },
  {
    "name": "NextGen LED",
    "type": "Customer - Direct",
    "industry": "Consumer Products",
    "street": "1101 Wootton Parkway, Suite 920",
    "city": "Rockville",
    "state": "MD",
    "country": "US",
    "zip": 20852,
    "employees": 49,
    "latitude": 39.06803,
    "longitude": -77.1563,
    "description": "",
    "logo": ""
  },
  {
    "name": "BD Diagnostics System - LATAM/Canada",
    "type": "Customer - Direct",
    "industry": "Hospitals & Healthcare",
    "street": "2100 Derry Road West Suite 100",
    "city": "Mississauga",
    "state": "ON",
    "country": "Canada",
    "zip": "L5N 0B3",
    "employees": 30000,
    "latitude": 43.60905,
    "longitude": -79.7523,
    "description": "",
    "logo": ""
  },
  {
    "name": "Next Step Living",
    "type": "Customer - Direct",
    "industry": "Corporate Services",
    "street": "25 Drydock Ave",
    "city": "Boston",
    "state": "MA",
    "country": "US",
    "zip": 2210,
    "employees": 300,
    "latitude": 42.34428,
    "longitude": -71.029,
    "description": "",
    "logo": ""
  },
  {
    "name": "SPEC Process Engineering & Construction",
    "type": "Customer - Direct",
    "industry": "Construction & Building Materials",
    "street": "17 A St",
    "city": "Burlington",
    "state": "MA",
    "country": "US",
    "zip": "01803-3404",
    "employees": 49,
    "latitude": 42.49778,
    "longitude": -71.2261,
    "description": "",
    "logo": ""
  },
  {
    "name": "Bayer Corporation",
    "type": "Customer - Direct",
    "industry": "Hospitals & Healthcare",
    "street": "100 Bayer Rd.",
    "city": "Pittsburgh",
    "state": "PA",
    "country": "United States",
    "zip": "15205-9741",
    "employees": 16300,
    "latitude": 40.44411,
    "longitude": -80.1664,
    "description": "",
    "logo": ""
  },
  {
    "name": "Roberts Environmental Control Inc",
    "type": "Customer - Direct",
    "industry": "HVAC",
    "street": "8500 W. 185th Ste. B",
    "city": "Tinley Park",
    "state": "IL",
    "country": "US",
    "zip": 60487,
    "employees": 48,
    "latitude": 41.55334,
    "longitude": -87.8252,
    "description": "",
    "logo": ""
  },
  {
    "name": "Kodak Alaris",
    "type": "Customer - Direct",
    "industry": "Consumer Products",
    "street": "2600 Manitou Rd",
    "city": "Rochester",
    "state": "NY",
    "country": "US",
    "zip": 14653,
    "employees": 24400,
    "latitude": 43.15374,
    "longitude": -77.7501,
    "description": "",
    "logo": ""
  },
  {
    "name": "SCHNEIDER ELECTRIC SA",
    "type": "Customer - Direct",
    "industry": "Electronics",
    "street": "35 rue Joseph Monier",
    "city": "Rueil-malmaison",
    "state": "Ile-de-France",
    "country": "France",
    "zip": 92500,
    "employees": 185965,
    "latitude": 48.89112,
    "longitude": 2.172874,
    "description": "",
    "logo": ""
  },
  {
    "name": "Itron, Inc.",
    "type": "Customer - Direct",
    "industry": "Electronics",
    "street": "Global Business Services Block 1000 Unit 1105, Citygate",
    "city": "Mahon",
    "state": "Cork",
    "country": "Ireland",
    "zip": 0,
    "employees": 8000,
    "latitude": 51.88305,
    "longitude": -8.40693,
    "description": "",
    "logo": ""
  },
  {
    "name": "American Baler Company, Inc.",
    "type": "Customer - Direct",
    "industry": "Industrial Manufacturing & Services",
    "street": "800 E. CENTER STREET",
    "city": "BELLEVUE",
    "state": "OH",
    "country": "US",
    "zip": 44811,
    "employees": 500,
    "latitude": 41.27042,
    "longitude": -82.831,
    "description": "",
    "logo": ""
  },
  {
    "name": "NRG Residential Solar Solutions LLC, d/b/a NRG Home Solar",
    "type": "Customer - Direct",
    "industry": "Energy & Environmental",
    "street": "1000 North Post Oak Road, Suite 240",
    "city": "Houston",
    "state": "TX",
    "country": "US",
    "zip": 7055,
    "employees": 2100,
    "latitude": 29.78499,
    "longitude": -95.4564,
    "description": "",
    "logo": ""
  },
  {
    "name": "Pacific Dental Services",
    "type": "Customer - Direct",
    "industry": "Hospitals & Healthcare",
    "street": "17000 Red Hill Ave",
    "city": "Irvine",
    "state": "CA",
    "country": "US",
    "zip": 92614,
    "employees": 2411,
    "latitude": 33.69891,
    "longitude": -117.849,
    "description": "",
    "logo": ""
  },
  {
    "name": "Eagle Ottawa, LLC",
    "type": "Customer - Direct",
    "industry": "Automotive",
    "street": "1885 Pond Run",
    "city": "Auburn Hills",
    "state": "MI",
    "country": "US",
    "zip": 48326,
    "employees": 4000,
    "latitude": 42.66999,
    "longitude": -83.2286,
    "description": "",
    "logo": ""
  },
  {
    "name": "Northern Power Systems, Inc.",
    "type": "Customer - Direct",
    "industry": "Industrial Manufacturing & Services",
    "street": "29 Pitman Road",
    "city": "Barre",
    "state": "VT",
    "country": "US",
    "zip": 5641,
    "employees": 150,
    "latitude": 44.17062,
    "longitude": -72.4858,
    "description": "",
    "logo": ""
  },
  {
    "name": "Xylem Inc",
    "type": "Customer - Direct",
    "industry": "Industrial Manufacturing & Services",
    "street": "1 International Drive",
    "city": "Rye Brook",
    "state": "NY",
    "country": "US",
    "zip": 10573,
    "employees": 12500,
    "latitude": 41.05135,
    "longitude": -73.688,
    "description": "",
    "logo": ""
  },
  {
    "name": "Bobst Group North America",
    "type": "Customer - Direct",
    "industry": "Industrial Manufacturing & Services",
    "street": "146 Harrison Avenue",
    "city": "Roseland",
    "state": "NJ",
    "country": "US",
    "zip": "07068-1294",
    "employees": 1001,
    "latitude": 40.82598,
    "longitude": -74.3029,
    "description": "",
    "logo": ""
  },
  {
    "name": "Lutron Electronics Company, Inc.",
    "type": "Customer - Direct",
    "industry": "Industrial Manufacturing & Services",
    "street": "7200 Suter Road",
    "city": "Coopersburg",
    "state": "PA",
    "country": "US",
    "zip": "18036-1299",
    "employees": 2500,
    "latitude": 40.52137,
    "longitude": -75.3764,
    "description": "",
    "logo": ""
  },
  {
    "name": "Malvern Instruments Inc.",
    "type": "Customer - Direct",
    "industry": "Hospitals & Healthcare",
    "street": "117 Flanders Road",
    "city": "Westborough",
    "state": "MA",
    "country": "US",
    "zip": "01581-1042",
    "employees": 400,
    "latitude": 42.2725,
    "longitude": -71.5765,
    "description": "",
    "logo": ""
  },
  {
    "name": "Pitney Bowes New Zealand",
    "type": "Customer - Direct",
    "industry": "Computer Software",
    "street": "Building B, Unit 2&3 72 Apollo Drive Rosedale",
    "city": "Auckland",
    "state": 0,
    "country": "NZ",
    "zip": 632,
    "employees": 2001,
    "latitude": -36.7394,
    "longitude": 174.7263,
    "description": "Enabling commerce with speed and agility across the full commerce continuum",
    "logo": "http://www.espire.com/services/digital-experience-management/multi-channel-customer-communications-management/~/media/a23ba18a2bb740dcb5a42c0308d5dc07.ashx"
  },
  {
    "name": "GE OG Drilling - Artificial Lift",
    "type": "Customer - Direct",
    "industry": "Energy & Environmental",
    "street": 0,
    "city": "Oklahoma City",
    "state": "OK",
    "country": "US",
    "zip": 0,
    "employees": 2001,
    "latitude": 35.46756,
    "longitude": -97.5164,
    "description": "The world's premier digital industrial company.",
    "logo": "http://cdn3.geready.com/sites/all/themes/ge_2012/logo.png"
  },
  {
    "name": "Femto",
    "type": "Customer - Direct",
    "industry": "Hospitals & Healthcare",
    "street": "1492 Morris Ave, Main Floor Ste",
    "city": "Union",
    "state": "NJ",
    "country": "US",
    "zip": 7083,
    "employees": 16,
    "latitude": 40.69003,
    "longitude": -74.2497,
    "description": "",
    "logo": ""
  },
  {
    "name": "GE OG TMS",
    "type": "Customer - Direct",
    "industry": "Energy & Environmental",
    "street": "Via Felice Matteucci 2",
    "city": "2 Florence",
    "state": 0,
    "country": "Italy",
    "zip": 50127,
    "employees": 2001,
    "latitude": 43.80296,
    "longitude": 11.2297,
    "description": "The world's premier digital industrial company.",
    "logo": "http://cdn3.geready.com/sites/all/themes/ge_2012/logo.png"
  },
  {
    "name": "Radian Generation",
    "type": "Customer - Direct",
    "industry": "Corporate Services",
    "street": "222 Columbus Avenue Suite 420",
    "city": "San Francisco",
    "state": "CA",
    "country": "US",
    "zip": 94133,
    "employees": 10,
    "latitude": 37.79736,
    "longitude": -122.406,
    "description": "",
    "logo": ""
  },
  {
    "name": "Total Paving",
    "type": "Customer - Direct",
    "industry": "Constructuon",
    "street": "11765 West Illinois Ave.",
    "city": "Beach Park",
    "state": "IL",
    "country": "US",
    "zip": 60099,
    "employees": 10,
    "latitude": 37.88452,
    "longitude": -89.4911,
    "description": "",
    "logo": ""
  },
  {
    "name": "Renewal by Andersen",
    "type": "Customer - Direct",
    "industry": "Retail",
    "street": "9900 Jamaica Avenue",
    "city": "S Cottage Grove",
    "state": "MN",
    "country": "US",
    "zip": 55016,
    "employees": 901,
    "latitude": 44.8062,
    "longitude": -92.9389,
    "description": "",
    "logo": ""
  },
  {
    "name": "Advantor Systems Corporation",
    "type": "Customer - Direct",
    "industry": "Corporate Services",
    "street": "12612 Challenger Pkwy, Suite 300",
    "city": "Orlando",
    "state": "FL",
    "country": "US",
    "zip": 32826,
    "employees": 100,
    "latitude": 28.57265,
    "longitude": -81.2026,
    "description": "",
    "logo": ""
  },
  {
    "name": "Haskris Company",
    "type": "Customer - Direct",
    "industry": "Industrial Manufacturing & Services",
    "street": "100 Kelly Street",
    "city": "Elk Grove Village",
    "state": "IL",
    "country": "US",
    "zip": 60007,
    "employees": 55,
    "latitude": 42.02912,
    "longitude": -87.9838,
    "description": "",
    "logo": ""
  },
  {
    "name": "Altus Traffic Management",
    "type": "Customer - Direct",
    "industry": "Corporate Services",
    "street": "33 Spencer Street Sunshine, Melbourne, Victoria",
    "city": 0,
    "state": 0,
    "country": "Australia",
    "zip": 3020,
    "employees": 1000,
    "latitude": -37.8128,
    "longitude": 144.8112,
    "description": "",
    "logo": ""
  },
  {
    "name": "PowrPoint",
    "type": "Customer - Direct",
    "industry": "Industrial Manufacturing & Services",
    "street": "17 Arbor Way",
    "city": "Oquossoc",
    "state": "ME",
    "country": "US",
    "zip": 4964,
    "employees": 10,
    "latitude": 44.96644,
    "longitude": -70.7737,
    "description": "",
    "logo": ""
  },
  {
    "name": "Canco Fire Sprinkler Services",
    "type": "Customer - Direct",
    "industry": "HVAC",
    "street": "352 Main Street/Route 28",
    "city": "West Yarmouth",
    "state": "MA",
    "country": "US",
    "zip": 2673,
    "employees": 10,
    "latitude": 41.70639,
    "longitude": -70.2371,
    "description": "",
    "logo": ""
  },
  {
    "name": "TallyGenicom Ltd",
    "type": "Customer - Direct",
    "industry": "Other",
    "street": 0,
    "city": "Irvine",
    "state": "CA",
    "country": "US",
    "zip": 0,
    "employees": 500,
    "latitude": 33.68395,
    "longitude": -117.795,
    "description": "",
    "logo": ""
  },
  {
    "name": "Topcon KK",
    "type": "Customer - Direct",
    "industry": "Electronics",
    "street": "75-1, Hasunuma-cho, Itabashi-ku",
    "city": "Tokyo",
    "state": "Tokyo",
    "country": "Japan",
    "zip": "174-8580",
    "employees": 4000,
    "latitude": 35.77281,
    "longitude": 139.7033,
    "description": "",
    "logo": ""
  },
  {
    "name": "Building EMT's Residential",
    "type": "Customer - Direct",
    "industry": "Consumer Products",
    "street": 0,
    "city": 0,
    "state": "GA",
    "country": "US",
    "zip": 0,
    "employees": 3100,
    "latitude": 32.16562,
    "longitude": -82.9001,
    "description": "",
    "logo": ""
  },
  {
    "name": "Domino (Dubai)",
    "type": "Customer - Direct",
    "industry": "Computer Hardware",
    "street": "PO Box 16984",
    "city": "Jebel Ali Free Zone",
    "state": 0,
    "country": "Dubai",
    "zip": 0,
    "employees": 49,
    "latitude": 24.99714,
    "longitude": 55.08922,
    "description": "",
    "logo": ""
  },
  {
    "name": "Bear Electrical Solutions",
    "type": "Customer - Direct",
    "industry": "Construction & Building Materials",
    "street": "1341 Archer Street, PO Box 924",
    "city": "Alviso",
    "state": "CA",
    "country": "US",
    "zip": 95002,
    "employees": 50,
    "latitude": 37.42842,
    "longitude": -121.973,
    "description": "",
    "logo": ""
  },
  {
    "name": "RvH Beheer",
    "type": "Customer - Direct",
    "industry": "Industrial Manufacturing & Services",
    "street": "Industrieweg 1",
    "city": "Maarssen",
    "state": "Utrecht",
    "country": "NL",
    "zip": "3606 AR",
    "employees": 10,
    "latitude": 52.12867,
    "longitude": 5.040382,
    "description": "",
    "logo": ""
  },
  {
    "name": "Michigan Valley Irrigation",
    "type": "Customer - Direct",
    "industry": "Energy & Environmental",
    "street": "4802 Caro Rd",
    "city": "Vassar",
    "state": "MI",
    "country": "US",
    "zip": "48768-9775",
    "employees": 46,
    "latitude": 43.45196,
    "longitude": -83.5273,
    "description": "",
    "logo": ""
  },
  {
    "name": "Bio-Circle Incorporated",
    "type": "Customer - Direct",
    "industry": "Chemicals",
    "street": "942 North Wolcott Ave",
    "city": "Chicago",
    "state": "IL",
    "country": "US",
    "zip": 60622,
    "employees": 3,
    "latitude": 41.89904,
    "longitude": -87.675,
    "description": "",
    "logo": ""
  },
  {
    "name": "Superior Industries, LLC",
    "type": "Customer - Direct",
    "industry": "Industrial Manufacturing & Services",
    "street": "315 East State Highway 28",
    "city": "Morris",
    "state": "MN",
    "country": "US",
    "zip": 56267,
    "employees": 1300,
    "latitude": 45.60177,
    "longitude": -95.8966,
    "description": "",
    "logo": ""
  },
  {
    "name": "3-Print Bulgaria EOOD",
    "type": "Customer - Direct",
    "industry": "Retail",
    "street": "132 Bulgaria Blvd.",
    "city": "Sofia",
    "state": 0,
    "country": "Bulgaria",
    "zip": 1618,
    "employees": 0,
    "latitude": 42.65533,
    "longitude": 23.2805,
    "description": "",
    "logo": ""
  },
  {
    "name": "Solectria Renewables",
    "type": "Customer - Direct",
    "industry": "Electronics",
    "street": "360 Merrimack Street, Building 9, 2nd Floor",
    "city": "Lawrence",
    "state": "MA",
    "country": "US",
    "zip": 1843,
    "employees": 60,
    "latitude": 42.70426,
    "longitude": -71.1432,
    "description": "",
    "logo": ""
  },
  {
    "name": "EarthCare/ClearBrook",
    "type": "Customer - Direct",
    "industry": "Energy & Environmental",
    "street": "972 Nicolls Road",
    "city": "Deer Park",
    "state": "NY",
    "country": "US",
    "zip": 11729,
    "employees": 60,
    "latitude": 40.76865,
    "longitude": -73.309,
    "description": "",
    "logo": ""
  },
  {
    "name": "Paramount Assets LLC",
    "type": "Customer - Direct",
    "industry": "Real Estate Services",
    "street": "40 Parker Road, Suite 200",
    "city": "Elizabeth",
    "state": "NJ",
    "country": "US",
    "zip": 7208,
    "employees": 50,
    "latitude": 40.67348,
    "longitude": -74.2157,
    "description": "",
    "logo": ""
  },
  {
    "name": "Daikin Australia",
    "type": "Customer - Direct",
    "industry": "HVAC",
    "street": "62-66 Governor Macquarie Drive, AU",
    "city": "Chipping Norton",
    "state": "NSW",
    "country": "Australia",
    "zip": 2170,
    "employees": 300,
    "latitude": -33.9217,
    "longitude": 150.9619,
    "description": "",
    "logo": ""
  },
  {
    "name": "AMPM ROAD SERVICE, INC",
    "type": "Customer - Direct",
    "industry": "Automotive",
    "street": "54 Southside Industrial parkway",
    "city": "Atlanta",
    "state": "GA",
    "country": "US",
    "zip": 30354,
    "employees": 49,
    "latitude": 33.6532,
    "longitude": -84.3875,
    "description": "",
    "logo": ""
  },
  {
    "name": "Green Marine and Industrial Equipment Co.",
    "type": "Customer - Direct",
    "industry": "Industrial Manufacturing & Services",
    "street": "1111 Central Ave.",
    "city": "Metairie",
    "state": "LA",
    "country": "US",
    "zip": 70001,
    "employees": 50,
    "latitude": 29.97411,
    "longitude": -90.1738,
    "description": "",
    "logo": ""
  },
  {
    "name": "AVI-SPL, Inc.",
    "type": "Customer - Direct",
    "industry": "Computer Software",
    "street": "6301 Benjamin Road, Ste 101",
    "city": "Tampa",
    "state": "FL",
    "country": "US",
    "zip": 33634,
    "employees": 1200,
    "latitude": 28.00515,
    "longitude": -82.5415,
    "description": "",
    "logo": ""
  },
  {
    "name": "Harmonic Inc",
    "type": "Customer - Direct",
    "industry": "Media",
    "street": "4300 First Street",
    "city": "San Jose",
    "state": "CA",
    "country": "US",
    "zip": 95134,
    "employees": 1106,
    "latitude": 37.4213,
    "longitude": -121.961,
    "description": "",
    "logo": ""
  },
  {
    "name": "Irrigation Matters",
    "type": "Customer - Direct",
    "industry": "Retail",
    "street": "3233 S I St",
    "city": "Tulare",
    "state": "CA",
    "country": "US",
    "zip": "93274-7133",
    "employees": 14,
    "latitude": 36.17682,
    "longitude": -119.343,
    "description": "",
    "logo": ""
  },
  {
    "name": "Lumenis Inc.",
    "type": "Customer - Direct",
    "industry": "Hospitals & Healthcare",
    "street": "2033 Gateway Place, Suite 200",
    "city": "San Jose",
    "state": "CA",
    "country": "United States",
    "zip": 95110,
    "employees": 600,
    "latitude": 37.37109,
    "longitude": -121.926,
    "description": "",
    "logo": ""
  },
  {
    "name": "Omneon (use Harmonic)",
    "type": "Customer - Direct",
    "industry": "Computer Software",
    "street": "1237 E. Arques Avenue",
    "city": "Sunnyvale",
    "state": "CA",
    "country": "US",
    "zip": "94085-3913",
    "employees": 209,
    "latitude": 37.38105,
    "longitude": -121.992,
    "description": "",
    "logo": ""
  },
  {
    "name": "Pro-Motion Technology Group, LLC",
    "type": "Customer - Direct",
    "industry": "Electronics",
    "street": "29755 Beck Road",
    "city": "Wixom",
    "state": "MI",
    "country": "US",
    "zip": 48393,
    "employees": 15,
    "latitude": 42.51072,
    "longitude": -83.5194,
    "description": "",
    "logo": ""
  },
  {
    "name": "Ballard Power Systems Inc.",
    "type": "Customer - Direct",
    "industry": "Industrial Manufacturing & Services",
    "street": "9000 Glenlyon Parkway",
    "city": "Burnaby",
    "state": "BC",
    "country": "CA",
    "zip": "V5J 5J8",
    "employees": 1300,
    "latitude": 49.19803,
    "longitude": -123.008,
    "description": "",
    "logo": ""
  },
  {
    "name": "Currie Group",
    "type": "Customer - Direct",
    "industry": "Industrial Manufacturing & Services",
    "street": "2-4 Guest Street, Hawthorn VIC",
    "city": "Albany",
    "state": "Victoria",
    "country": "Australia",
    "zip": 3122,
    "employees": 60,
    "latitude": -37.4713,
    "longitude": 144.7852,
    "description": "",
    "logo": ""
  },
  {
    "name": "Mechanical Technologies",
    "type": "Customer - Direct",
    "industry": "Transportation",
    "street": "230 W Parkway Ste 11",
    "city": "Pompton Plains",
    "state": "NJ",
    "country": "US",
    "zip": "07444-1060",
    "employees": 49,
    "latitude": 40.96817,
    "longitude": -74.2959,
    "description": "",
    "logo": ""
  },
  {
    "name": "Molecular Devices MDS",
    "type": "Customer - Direct",
    "industry": "Industrial Manufacturing & Services",
    "street": "1311 Orleans Drive",
    "city": "Sunnyvale",
    "state": "CA",
    "country": "US",
    "zip": 94089,
    "employees": 3000,
    "latitude": 37.41094,
    "longitude": -122.008,
    "description": "",
    "logo": ""
  },
  {
    "name": "Electronics For Imaging, Inc.",
    "type": "Customer - Direct",
    "industry": "Computer Hardware",
    "street": "303 Velocity Way",
    "city": "Foster City",
    "state": "CA",
    "country": "United States",
    "zip": 94404,
    "employees": 2672,
    "latitude": 37.57001,
    "longitude": -122.28,
    "description": "",
    "logo": ""
  },
  {
    "name": "Pentair Water - Pool & Spa Division",
    "type": "Customer - Direct",
    "industry": "Retail",
    "street": "1620 Hawkins Ave",
    "city": "Sanford",
    "state": "NC",
    "country": "US",
    "zip": 27330,
    "employees": 2001,
    "latitude": 35.50365,
    "longitude": -79.1788,
    "description": "",
    "logo": ""
  },
  {
    "name": "Motorola Solutions Inc",
    "type": "Customer - Direct",
    "industry": "Telecommunications",
    "street": "1303 East Algonquin Road",
    "city": "Schaumburg",
    "state": "IL",
    "country": "US",
    "zip": 60196,
    "employees": 53000,
    "latitude": 42.06225,
    "longitude": -88.0525,
    "description": "",
    "logo": ""
  },
  {
    "name": "Solta Medical Inc.",
    "type": "Customer - Direct",
    "industry": "Industrial Manufacturing & Services",
    "street": "25881 Industrial Blvd",
    "city": "Hayward",
    "state": "CA",
    "country": "US",
    "zip": 94545,
    "employees": 120,
    "latitude": 37.63204,
    "longitude": -122.114,
    "description": "",
    "logo": ""
  },
  {
    "name": "AdvantaClean Systems, Inc.",
    "type": "Customer - Direct",
    "industry": "Construction & Building Materials",
    "street": "107 Parr Drive",
    "city": "Huntersville",
    "state": "NC",
    "country": "US",
    "zip": 28078,
    "employees": 25,
    "latitude": 35.43919,
    "longitude": -80.8426,
    "description": "",
    "logo": ""
  },
  {
    "name": "Elbit Systems of America",
    "type": "Customer - Direct",
    "industry": "Aerospace & Defense",
    "street": "4700 Marine Creek Parkway, PO Box 136969,",
    "city": "Fort Worth",
    "state": "TX",
    "country": "US",
    "zip": "76136-6969",
    "employees": 1905,
    "latitude": 32.83012,
    "longitude": -97.3836,
    "description": "",
    "logo": ""
  },
  {
    "name": "Everyday Solutions",
    "type": "Customer - Direct",
    "industry": "Telecommunications",
    "street": "54 Baker Ave, Ste 300",
    "city": "Concord",
    "state": "MA",
    "country": "US",
    "zip": 1742,
    "employees": 50,
    "latitude": 42.46223,
    "longitude": -71.3805,
    "description": "",
    "logo": ""
  },
  {
    "name": "Washer Solutions",
    "type": "Customer - Direct",
    "industry": "Commercial Equipment",
    "street": "760-A Canning Parkway",
    "city": "Victor",
    "state": "NY",
    "country": "US",
    "zip": 14564,
    "employees": 10,
    "latitude": 43.00126,
    "longitude": -77.4706,
    "description": "",
    "logo": ""
  },
  {
    "name": "GE Oil & Gas",
    "type": "Customer - Direct",
    "industry": "Energy & Environmental",
    "street": "4424 W. Sam Houston Pwky North",
    "city": "Houston",
    "state": "TX",
    "country": "US",
    "zip": 77041,
    "employees": 33000,
    "latitude": 29.83323,
    "longitude": -95.5623,
    "description": "The world's premier digital industrial company.",
    "logo": "http://cdn3.geready.com/sites/all/themes/ge_2012/logo.png"
  },
  {
    "name": "PSE Power Systems",
    "type": "Customer - Direct",
    "industry": "Construction & Building Materials",
    "street": "Station Road",
    "city": "Newcastle West",
    "state": "Limerick",
    "country": "IE",
    "zip": "Ireland",
    "employees": 50,
    "latitude": 52.45739,
    "longitude": -9.05953,
    "description": "",
    "logo": ""
  },
  {
    "name": "Verifi Technologies",
    "type": "Customer - Direct",
    "industry": "Chemicals",
    "street": "4992 Rialto Road",
    "city": "West Chester",
    "state": "OH",
    "country": "US",
    "zip": 45069,
    "employees": 200,
    "latitude": 39.3249,
    "longitude": -84.4578,
    "description": "",
    "logo": ""
  },
  {
    "name": "Nilfisk A/S",
    "type": "Customer - Direct",
    "industry": "Consumer Products",
    "street": "Sognevej 25",
    "city": "Brï¿½ndby",
    "state": 0,
    "country": "Denmark",
    "zip": 2605,
    "employees": 5400,
    "latitude": 55.65665,
    "longitude": 12.42139,
    "description": "",
    "logo": ""
  },
  {
    "name": "Westmor Industries",
    "type": "Customer - Direct",
    "industry": "Industrial Manufacturing & Services",
    "street": "Development Dr",
    "city": "Morris",
    "state": "MN",
    "country": "US",
    "zip": 56267,
    "employees": 235,
    "latitude": 45.56671,
    "longitude": -95.8972,
    "description": "",
    "logo": ""
  },
  {
    "name": "Arpi's Industries Ltd.",
    "type": "Customer - Direct",
    "industry": "Construction & Building Materials",
    "street": "6815 40th St SE",
    "city": "Calgary",
    "state": "AB",
    "country": "Canada",
    "zip": "T2C 2W7",
    "employees": 499,
    "latitude": 50.99427,
    "longitude": -113.977,
    "description": "",
    "logo": ""
  },
  {
    "name": "AVCOM",
    "type": "Customer - Direct",
    "industry": "Telecommunications",
    "street": "2121 Ponce de Leon Blvd, Ste 1100",
    "city": "Coral Gables",
    "state": "Fl",
    "country": "US",
    "zip": 33134,
    "employees": 50,
    "latitude": 25.7533,
    "longitude": -80.258,
    "description": "",
    "logo": ""
  },
  {
    "name": "Mechdyne",
    "type": "Customer - Direct",
    "industry": "Telecommunications",
    "street": "11 East Church Street Fourth Floor",
    "city": "Marshalltown",
    "state": "IA",
    "country": "US",
    "zip": 50158,
    "employees": 115,
    "latitude": 42.04947,
    "longitude": -92.908,
    "description": "",
    "logo": ""
  },
  {
    "name": "Wesco Turf",
    "type": "Customer - Direct",
    "industry": "Retail",
    "street": "2101 Cantu Ct",
    "city": "Sarasota",
    "state": "FL",
    "country": "US",
    "zip": "34232-6240",
    "employees": 249,
    "latitude": 27.31499,
    "longitude": -82.4488,
    "description": "",
    "logo": ""
  },
  {
    "name": "PAC (Subsidiary of Roper)",
    "type": "Customer - Direct",
    "industry": "Industrial Manufacturing & Services",
    "street": "8824 Fallbrook Drive",
    "city": "Houston",
    "state": "TX",
    "country": "US",
    "zip": 77064,
    "employees": 300,
    "latitude": 29.92555,
    "longitude": -95.5494,
    "description": "",
    "logo": ""
  },
  {
    "name": "Hall Electrical Services",
    "type": "Customer - Direct",
    "industry": "Construction & Building Materials",
    "street": "New Zealand",
    "city": "Auckland",
    "state": "Auckland",
    "country": "New Zealand",
    "zip": 1010,
    "employees": 51,
    "latitude": -36.8485,
    "longitude": 174.7633,
    "description": "",
    "logo": ""
  },
  {
    "name": "S&C Electric Company",
    "type": "Customer - Direct",
    "industry": "Industrial Manufacturing & Services",
    "street": "6601 North Ridge Boulevard",
    "city": "Chicago",
    "state": "IL",
    "country": "US",
    "zip": 60626,
    "employees": 2400,
    "latitude": 42.00303,
    "longitude": -87.6766,
    "description": "",
    "logo": ""
  },
  {
    "name": "Service Champions Inc.",
    "type": "Customer - Direct",
    "industry": "HVAC",
    "street": "7020 Commerce Drive",
    "city": "Pleasanton",
    "state": "CA",
    "country": "US",
    "zip": 94588,
    "employees": 200,
    "latitude": 37.69703,
    "longitude": -121.919,
    "description": "",
    "logo": ""
  },
  {
    "name": "Sony Latin America, Inc.",
    "type": "Customer - Direct",
    "industry": "Electronics",
    "street": "5201 Blue Lagoon Dr., Suite 400",
    "city": "Miami",
    "state": "FL",
    "country": "US",
    "zip": 33126,
    "employees": 99,
    "latitude": 25.78323,
    "longitude": -80.2814,
    "description": "",
    "logo": ""
  },
  {
    "name": "Mainstream Energy - REC Solar",
    "type": "Customer - Direct",
    "industry": "Energy & Environmental",
    "street": "775 Fiero Lane Suite 200",
    "city": "San Luis Obispo",
    "state": "CA",
    "country": "US",
    "zip": 93401,
    "employees": 250,
    "latitude": 35.24373,
    "longitude": -120.643,
    "description": "",
    "logo": ""
  },
  {
    "name": "GE Energy",
    "type": "Customer - Direct",
    "industry": "Industrial Manufacturing & Services",
    "street": "4200 Wildwood Parkway",
    "city": "Atlanta",
    "state": "GA",
    "country": "US",
    "zip": 30339,
    "employees": 10000,
    "latitude": 33.91355,
    "longitude": -84.4569,
    "description": "The world's premier digital industrial company.",
    "logo": "http://cdn3.geready.com/sites/all/themes/ge_2012/logo.png"
  },
  {
    "name": "Innovator Industrial Services",
    "type": "Customer - Direct",
    "industry": "Industrial Manufacturing & Services",
    "street": "9207- 34A Avenue",
    "city": "Edmonton",
    "state": "AB",
    "country": "Canada",
    "zip": "T6E 5T6",
    "employees": 60,
    "latitude": 53.46728,
    "longitude": -113.472,
    "description": "",
    "logo": ""
  },
  {
    "name": "Bigge Crane and Rigging",
    "type": "Customer - Direct",
    "industry": "Corporate Services",
    "street": "10700 Bigge St.",
    "city": "San Leandro",
    "state": "CA",
    "country": "US",
    "zip": 94577,
    "employees": 150,
    "latitude": 37.72712,
    "longitude": -122.188,
    "description": "",
    "logo": ""
  },
  {
    "name": "Premier Security Group, Inc",
    "type": "Customer - Direct",
    "industry": 0,
    "street": "4368 N. Brawley Suite 101",
    "city": "Fresno",
    "state": "CA",
    "country": "US",
    "zip": 93722,
    "employees": 49,
    "latitude": 36.8006,
    "longitude": -119.862,
    "description": "",
    "logo": ""
  },
  {
    "name": "CCE - France",
    "type": "Customer - Direct",
    "industry": "Food & Beverage",
    "street": "7 Delaware Drive, Tongwell",
    "city": "Milton Keynes",
    "state": 0,
    "country": "UK",
    "zip": "MK15 8HG",
    "employees": 4000,
    "latitude": 52.06873,
    "longitude": -0.73008,
    "description": "",
    "logo": ""
  },
  {
    "name": "Sacramento Computer Power",
    "type": "Customer - Direct",
    "industry": "Industrial Manufacturing & Services",
    "street": "829 W Stadium Ln",
    "city": "Sacramento",
    "state": "CA",
    "country": "US",
    "zip": "95834-1102",
    "employees": 8,
    "latitude": 38.65087,
    "longitude": -121.479,
    "description": "",
    "logo": ""
  },
  {
    "name": "Vitronics Soltec, Inc.",
    "type": "Customer - Direct",
    "industry": "Industrial Manufacturing & Services",
    "street": "2 Marin Way",
    "city": "Stratham",
    "state": "NH",
    "country": "US",
    "zip": "03885-2578",
    "employees": 1001,
    "latitude": 42.97139,
    "longitude": -70.8883,
    "description": "",
    "logo": ""
  },
  {
    "name": "Weber, Inc.",
    "type": "Customer - Direct",
    "industry": "Industrial Manufacturing & Services",
    "street": "10701 North Ambassador Drive",
    "city": "Kansas City",
    "state": "MO",
    "country": "US",
    "zip": 64153,
    "employees": 49,
    "latitude": 39.28689,
    "longitude": -94.6753,
    "description": "",
    "logo": ""
  },
  {
    "name": "Enernoc, Inc.",
    "type": "Customer - Direct",
    "industry": "Energy & Environmental",
    "street": "101 Federal Street, Suite 1100",
    "city": "Boston",
    "state": "MA",
    "country": "United States",
    "zip": 2110,
    "employees": 1125,
    "latitude": 42.355,
    "longitude": -71.0568,
    "description": "",
    "logo": ""
  },
  {
    "name": "RS&A Inc.",
    "type": "Customer - Direct",
    "industry": "Hospitals & Healthcare",
    "street": "465 Forum Parkway",
    "city": "Rural Hall",
    "state": "NC",
    "country": "US",
    "zip": 27045,
    "employees": 50,
    "latitude": 36.21295,
    "longitude": -80.2924,
    "description": "",
    "logo": ""
  },
  {
    "name": "Syneron Candela Australia",
    "type": "Customer - Direct",
    "industry": "Hospitals & Healthcare",
    "street": "14/8 Campbell St",
    "city": "Artarmon",
    "state": "NSW",
    "country": "Australia",
    "zip": 2064,
    "employees": 100,
    "latitude": -33.8173,
    "longitude": 151.1871,
    "description": "",
    "logo": ""
  },
  {
    "name": "Krutchkoff Mechanical Services",
    "type": "Customer - Direct",
    "industry": "HVAC",
    "street": "PO Box 207",
    "city": "Washingtonville",
    "state": "NY",
    "country": "US",
    "zip": 10992,
    "employees": 49,
    "latitude": 41.42787,
    "longitude": -74.166,
    "description": "",
    "logo": ""
  },
  {
    "name": "Fronde",
    "type": "Customer - Direct",
    "industry": "Corporate Services",
    "street": "3 Queens Wharf, PO Box 11-545",
    "city": "Wellington",
    "state": 0,
    "country": "New Zealand",
    "zip": 6142,
    "employees": 499,
    "latitude": -41.2847,
    "longitude": 174.7786,
    "description": "",
    "logo": ""
  },
  {
    "name": "Janam Technologies",
    "type": "Customer - Direct",
    "industry": "Computer Hardware",
    "street": "100 Crossways Park West, Suite 105",
    "city": "Woodbury",
    "state": "NY",
    "country": "US",
    "zip": 11797,
    "employees": 66,
    "latitude": 40.80742,
    "longitude": -73.4898,
    "description": "",
    "logo": ""
  },
  {
    "name": "Doctors Oxygen Service, Inc.",
    "type": "Customer - Direct",
    "industry": "Consumer Products",
    "street": "10180 South 54th Street",
    "city": "Franklin",
    "state": "WI",
    "country": "US",
    "zip": "53132-8644",
    "employees": 60,
    "latitude": 42.86086,
    "longitude": -87.9832,
    "description": "",
    "logo": ""
  },
  {
    "name": "FourteenIP",
    "type": "Customer - Direct",
    "industry": "Construction & Building Materials",
    "street": "Emerald House, Meadowcroft Way, Leigh",
    "city": 0,
    "state": "Lancashire",
    "country": "United Kingdom",
    "zip": "WN7 3XZ",
    "employees": 15,
    "latitude": 53.76323,
    "longitude": -2.70441,
    "description": "",
    "logo": ""
  },
  {
    "name": "Amonix",
    "type": "Customer - Direct",
    "industry": "Industrial Manufacturing & Services",
    "street": "1709 Apollo Court",
    "city": "Seal Beach",
    "state": "Ca",
    "country": "US",
    "zip": 90740,
    "employees": 60,
    "latitude": 33.75886,
    "longitude": -118.091,
    "description": "",
    "logo": ""
  },
  {
    "name": "Candela Corporation",
    "type": "Customer - Direct",
    "industry": "Hospitals & Healthcare",
    "street": "530 Boston Post Road",
    "city": "Wayland",
    "state": "MA",
    "country": "US",
    "zip": 1778,
    "employees": 405,
    "latitude": 42.36328,
    "longitude": -71.3892,
    "description": "",
    "logo": ""
  },
  {
    "name": "Alung Technologies",
    "type": "Customer - Direct",
    "industry": "Hospitals & Healthcare",
    "street": "2500 Jane Street, Suite 1",
    "city": "Pittsburgh",
    "state": "PA",
    "country": "US",
    "zip": 15203,
    "employees": 50,
    "latitude": 40.42582,
    "longitude": -79.9704,
    "description": "",
    "logo": ""
  },
  {
    "name": "Insight Direct USA, Inc.",
    "type": "Customer - Direct",
    "industry": "Corporate Services",
    "street": "6820 South Harl Avenue",
    "city": "Tempe",
    "state": "AZ",
    "country": "US",
    "zip": 85283,
    "employees": 4898,
    "latitude": 33.35823,
    "longitude": -111.968,
    "description": "",
    "logo": ""
  },
  {
    "name": "Loebs & Gordon Poolcare",
    "type": "Customer - Direct",
    "industry": "Computer Software",
    "street": "28 Goodfriend Drive",
    "city": "East Hampton",
    "state": "NY",
    "country": "US",
    "zip": 11937,
    "employees": 15,
    "latitude": 40.96638,
    "longitude": -72.2433,
    "description": "",
    "logo": ""
  },
  {
    "name": "Videojet Technologies Inc.",
    "type": "Customer - Direct",
    "industry": "Industrial Manufacturing & Services",
    "street": "1500 Mittel Boulevard",
    "city": "Wood Dale",
    "state": "IL",
    "country": "United States",
    "zip": "60191-1073",
    "employees": 3500,
    "latitude": 41.99011,
    "longitude": -87.9905,
    "description": "",
    "logo": ""
  },
  {
    "name": "Conquest Imaging",
    "type": "Customer - Direct",
    "industry": "Hospitals & Healthcare",
    "street": "1815 Industrial Dr. Ste 100",
    "city": "Stockton",
    "state": "CA",
    "country": "US",
    "zip": 95206,
    "employees": 60,
    "latitude": 37.91213,
    "longitude": -121.251,
    "description": "",
    "logo": ""
  },
  {
    "name": "DVS Sciences ( now merged with Fluidigm)",
    "type": "Customer - Direct",
    "industry": "Pharmaceuticals & Biotech",
    "street": "639 N. Pastoria Ave.",
    "city": "Sunnyvale",
    "state": "CA",
    "country": "US",
    "zip": "94085-2917",
    "employees": 60,
    "latitude": 37.39421,
    "longitude": -122.034,
    "description": "",
    "logo": ""
  },
  {
    "name": "Brimatic",
    "type": "Customer - Direct",
    "industry": "Retail",
    "street": "Uferstr. 19",
    "city": "Velbert",
    "state": 0,
    "country": "DE",
    "zip": 42555,
    "employees": 49,
    "latitude": 51.36579,
    "longitude": 7.13326,
    "description": "",
    "logo": ""
  },
  {
    "name": "Racktime Field Marketing",
    "type": "Customer - Direct",
    "industry": "Computer Software",
    "street": "Industrieterrein Boekelermeer, Fluorietweg 35, 1812 RR",
    "city": "Alkmaar",
    "state": 0,
    "country": "Netherlands",
    "zip": "1812 RR",
    "employees": 60,
    "latitude": 52.63238,
    "longitude": 4.753375,
    "description": "",
    "logo": ""
  },
  {
    "name": "Bauer International",
    "type": "Customer - Direct",
    "industry": "Electronics",
    "street": "Budapest 1037 Kunigunda 60",
    "city": "Budapest",
    "state": "AL",
    "country": "Hungary",
    "zip": 1037,
    "employees": 20,
    "latitude": 47.56163,
    "longitude": 19.01311,
    "description": "",
    "logo": ""
  },
  {
    "name": "Western Pacific LP",
    "type": "Customer - Direct",
    "industry": "Corporate Services",
    "street": "1142 E. Acacia Court",
    "city": "Ontario",
    "state": "CA",
    "country": "US",
    "zip": 90761,
    "employees": 75,
    "latitude": 34.04777,
    "longitude": -117.631,
    "description": "",
    "logo": ""
  },
  {
    "name": "Advantage Communications",
    "type": "Customer - Direct",
    "industry": "Telecommunications",
    "street": 0,
    "city": 0,
    "state": 0,
    "country": "Australia",
    "zip": 0,
    "employees": 50,
    "latitude": -25.2744,
    "longitude": 133.7751,
    "description": "",
    "logo": ""
  },
  {
    "name": "Quench USA, Inc",
    "type": "Customer - Direct",
    "industry": "Energy & Environmental",
    "street": "780 5th Avenue, Suite 110",
    "city": "King of Prussia",
    "state": "PA",
    "country": "US",
    "zip": 19406,
    "employees": 200,
    "latitude": 40.104,
    "longitude": -75.4073,
    "description": "",
    "logo": ""
  },
  {
    "name": "TexCare",
    "type": "Customer - Direct",
    "industry": "Computer Software",
    "street": 0,
    "city": "Columbus",
    "state": "OH",
    "country": "US",
    "zip": 43035,
    "employees": 60,
    "latitude": 39.96118,
    "longitude": -82.9988,
    "description": "",
    "logo": ""
  },
  {
    "name": "Metso Shared Services Oy",
    "type": "Customer - Direct",
    "industry": "Industrial Manufacturing & Services",
    "street": "Fabianinkatu 9 A",
    "city": "Helsinki",
    "state": 0,
    "country": "Finland",
    "zip": "FIN-00130",
    "employees": 12000,
    "latitude": 60.16443,
    "longitude": 24.95,
    "description": "",
    "logo": ""
  },
  {
    "name": "Relevant Solutions, LLC",
    "type": "Customer - Direct",
    "industry": "Industrial Manufacturing & Services",
    "street": "12610 West Airport Blvd",
    "city": "Sugar Land",
    "state": "TX",
    "country": "US",
    "zip": 77478,
    "employees": 100,
    "latitude": 29.64824,
    "longitude": -95.6033,
    "description": "",
    "logo": ""
  },
  {
    "name": "Imtech Marine USA ( Radio Holland)",
    "type": "Customer - Direct",
    "industry": "Corporate Services",
    "street": "8943 Gulf Freeway",
    "city": "Houston",
    "state": "TX",
    "country": "US",
    "zip": "77017-7004",
    "employees": 1000,
    "latitude": 29.65966,
    "longitude": -95.2551,
    "description": "",
    "logo": ""
  },
  {
    "name": "FLSmidth & Co. A/S",
    "type": "Customer - Direct",
    "industry": "Construction & Building Materials",
    "street": "Vigerslev Alle 77",
    "city": "Valby",
    "state": "Valby",
    "country": "Denmark",
    "zip": 2500,
    "employees": 12145,
    "latitude": 55.66057,
    "longitude": 12.50991,
    "description": "",
    "logo": ""
  },
  {
    "name": "APA, Inc.",
    "type": "Customer - Direct",
    "industry": "HVAC",
    "street": "4 Campanelli Circle",
    "city": "Canton",
    "state": "MA",
    "country": "US",
    "zip": 2021,
    "employees": 60,
    "latitude": 42.16514,
    "longitude": -71.0725,
    "description": "",
    "logo": ""
  },
  {
    "name": "Baumer of America, Inc.",
    "type": "Customer - Direct",
    "industry": "Industrial Manufacturing & Services",
    "street": "435 Route 202",
    "city": "Towaco",
    "state": "NJ",
    "country": "US",
    "zip": 7082,
    "employees": 15,
    "latitude": 40.91663,
    "longitude": -74.3574,
    "description": "",
    "logo": ""
  },
  {
    "name": "ForteBio, Inc.",
    "type": "Customer - Direct",
    "industry": "Hospitals & Healthcare",
    "street": "1360 Willow Road, Suite 201",
    "city": "Menlo Park",
    "state": "CA",
    "country": "US",
    "zip": 94025,
    "employees": 200,
    "latitude": 37.47687,
    "longitude": -122.151,
    "description": "",
    "logo": ""
  },
  {
    "name": "Bombardier Aerospace",
    "type": "Customer - Direct",
    "industry": "Aerospace & Defense",
    "street": "400 Cote-Vertu Road West",
    "city": "Dorval, Quebec",
    "state": "QUEBEC",
    "country": "Canada",
    "zip": "H4S 1Y9",
    "employees": 10000,
    "latitude": 45.476,
    "longitude": -73.7284,
    "description": "",
    "logo": ""
  },
  {
    "name": "Information Management Solutions (IMS)",
    "type": "Customer - Direct",
    "industry": "Corporate Services",
    "street": "6611 Powner Farm Dr",
    "city": "Cincinnati",
    "state": "OH",
    "country": "US",
    "zip": "45248-2971",
    "employees": 5,
    "latitude": 39.15512,
    "longitude": -84.6662,
    "description": "",
    "logo": ""
  },
  {
    "name": "US Green Solar",
    "type": "Customer - Direct",
    "industry": "Energy & Environmental",
    "street": "12528 Kirkham Court #11",
    "city": "Poway",
    "state": "CA",
    "country": "US",
    "zip": 92064,
    "employees": 0,
    "latitude": 32.94364,
    "longitude": -117.051,
    "description": "",
    "logo": ""
  },
  {
    "name": "MCM Corporation",
    "type": "Customer - Direct",
    "industry": 0,
    "street": "12019 Colwick St.",
    "city": "San Antonio",
    "state": "TX",
    "country": "US",
    "zip": 78216,
    "employees": 15,
    "latitude": 29.55036,
    "longitude": -98.4956,
    "description": "",
    "logo": ""
  },
  {
    "name": "FibeRio Technology",
    "type": "Customer - Direct",
    "industry": "Industrial Manufacturing & Services",
    "street": "501 N. Sugar Rd.",
    "city": "Edinburg",
    "state": "TX",
    "country": "US",
    "zip": 78539,
    "employees": 60,
    "latitude": 26.30745,
    "longitude": -98.178,
    "description": "",
    "logo": ""
  },
  {
    "name": "Elekta, Inc",
    "type": "Customer - Direct",
    "industry": "Hospitals & Healthcare",
    "street": "100 Mathilda Place, 5th Fl.",
    "city": "Sunnyvale",
    "state": "CA",
    "country": "US",
    "zip": 94086,
    "employees": 2001,
    "latitude": 37.37856,
    "longitude": -122.033,
    "description": "",
    "logo": ""
  },
  {
    "name": "Alltegra",
    "type": "Customer - Direct",
    "industry": "Computer Software",
    "street": 0,
    "city": 0,
    "state": "CA",
    "country": "US",
    "zip": 92618,
    "employees": 5,
    "latitude": 36.77826,
    "longitude": -119.418,
    "description": "",
    "logo": ""
  },
  {
    "name": "Absolute Machine Tools, Inc.",
    "type": "Customer - Direct",
    "industry": "Industrial Manufacturing & Services",
    "street": "7420 Industrial Parkway",
    "city": "Lorain",
    "state": "OH",
    "country": "US",
    "zip": 44053,
    "employees": 75,
    "latitude": 41.40947,
    "longitude": -82.2764,
    "description": "",
    "logo": ""
  },
  {
    "name": "Linkmont Technologies",
    "type": "Customer - Direct",
    "industry": 0,
    "street": "4B Inverness Court East, Suite 200",
    "city": "Englewood",
    "state": "CO",
    "country": "US",
    "zip": 80112,
    "employees": 60,
    "latitude": 39.568,
    "longitude": -104.864,
    "description": "",
    "logo": ""
  },
  {
    "name": "Sungevity",
    "type": "Customer - Direct",
    "industry": "Computer Hardware",
    "street": "66 Franklin St, Suite 310",
    "city": "Oakland",
    "state": "CA",
    "country": "US",
    "zip": 94607,
    "employees": 300,
    "latitude": 37.79435,
    "longitude": -122.276,
    "description": "",
    "logo": ""
  },
  {
    "name": "Pacific Biosciences, Inc.",
    "type": "Customer - Direct",
    "industry": "Industrial Manufacturing & Services",
    "street": "1380 Willow Road",
    "city": "Menlo Park",
    "state": "CA",
    "country": "US",
    "zip": 94025,
    "employees": 120,
    "latitude": 37.47858,
    "longitude": -122.151,
    "description": "",
    "logo": ""
  },
  {
    "name": "Mizuho OSI",
    "type": "Customer - Direct",
    "industry": "Hospitals & Healthcare",
    "street": "30031 Ahern Avenue",
    "city": "Union City",
    "state": "CA",
    "country": "US",
    "zip": "94587-1234",
    "employees": 500,
    "latitude": 37.61051,
    "longitude": -122.078,
    "description": "",
    "logo": ""
  },
  {
    "name": "Best IT Engineering",
    "type": "Customer - Direct",
    "industry": "Computer Software",
    "street": "Level 8, 153 Walker Street,",
    "city": "North Sydney, NSW 2060",
    "state": "New South Wales",
    "country": "Australia",
    "zip": 2060,
    "employees": 300,
    "latitude": -33.8379,
    "longitude": 151.2094,
    "description": "",
    "logo": ""
  },
  {
    "name": "Oregon Commercial Heating",
    "type": "Customer - Direct",
    "industry": "HVAC",
    "street": "9684 S Wildcat Rd",
    "city": "Molalla",
    "state": "OR",
    "country": "US",
    "zip": 97038,
    "employees": 10,
    "latitude": 45.07086,
    "longitude": -122.668,
    "description": "",
    "logo": ""
  },
  {
    "name": "Tyco Fire & Security",
    "type": "Customer - Direct",
    "industry": "Industrial Manufacturing & Services",
    "street": "Lowes Industrial Estate",
    "city": "Belfast",
    "state": 0,
    "country": "United Kingdom",
    "zip": "BT8 8EH",
    "employees": 2001,
    "latitude": 54.51535,
    "longitude": -5.88886,
    "description": "",
    "logo": ""
  },
  {
    "name": "3T Systems",
    "type": "Customer - Direct",
    "industry": "Computer Software",
    "street": "Ave. Paulista, 777",
    "city": "Sao Paulo",
    "state": "SP",
    "country": "BR",
    "zip": "01311-914",
    "employees": 75,
    "latitude": -23.5668,
    "longitude": -46.6507,
    "description": "",
    "logo": ""
  },
  {
    "name": "Csesco Inc.",
    "type": "Customer - Direct",
    "industry": "Industrial Manufacturing & Services",
    "street": "830 West Northpointe Circle",
    "city": "North Salt Lake",
    "state": "UT",
    "country": "US",
    "zip": 84054,
    "employees": 49,
    "latitude": 40.83632,
    "longitude": -111.931,
    "description": "",
    "logo": ""
  },
  {
    "name": "GE Power",
    "type": "Customer - Direct",
    "industry": "Industrial Manufacturing & Services",
    "street": "4200 Wildwood Pkwy",
    "city": "Atlanta",
    "state": "GA",
    "country": "US",
    "zip": 30339,
    "employees": 11000,
    "latitude": 33.91355,
    "longitude": -84.4569,
    "description": "The world's premier digital industrial company.",
    "logo": "http://cdn3.geready.com/sites/all/themes/ge_2012/logo.png"
  },
  {
    "name": "PrimeraDx",
    "type": "Customer - Direct",
    "industry": "Corporate Services",
    "street": "171 Forbes Blvd, Suite 1000",
    "city": "Mansfield",
    "state": "MA",
    "country": "US",
    "zip": 2048,
    "employees": 99,
    "latitude": 42.02986,
    "longitude": -71.2422,
    "description": "",
    "logo": ""
  },
  {
    "name": "maximo IT-Service GmbH",
    "type": "Customer - Direct",
    "industry": "Corporate Services",
    "street": "Buxtehuder Strasse 112",
    "city": "Hamburg",
    "state": 0,
    "country": "Germany",
    "zip": 21073,
    "employees": 10,
    "latitude": 53.46997,
    "longitude": 9.963429,
    "description": "",
    "logo": ""
  },
  {
    "name": "SOCOMEC Group S.A.",
    "type": "Customer - Direct",
    "industry": "Electronics",
    "street": "1 rue de Westhouse BP 60010 Cedex",
    "city": "Benfeld",
    "state": "Alsace",
    "country": "France",
    "zip": 67235,
    "employees": 3000,
    "latitude": 48.37136,
    "longitude": 7.593024,
    "description": "",
    "logo": ""
  },
  {
    "name": "LBR Scientific, Inc.",
    "type": "Customer - Direct",
    "industry": "Industrial Manufacturing & Services",
    "street": "79 Hackensack Street",
    "city": "East Rutherford",
    "state": "NJ",
    "country": "US",
    "zip": 7073,
    "employees": 60,
    "latitude": 40.83309,
    "longitude": -74.0951,
    "description": "",
    "logo": ""
  },
  {
    "name": "Clancy Machine Tool",
    "type": "Customer - Direct",
    "industry": "Industrial Manufacturing & Services",
    "street": "3055 Osgood Court",
    "city": "Fremont",
    "state": "CA",
    "country": "US",
    "zip": 94539,
    "employees": 50,
    "latitude": 37.51604,
    "longitude": -121.944,
    "description": "",
    "logo": ""
  },
  {
    "name": "Shared Imaging",
    "type": "Customer - Direct",
    "industry": "Hospitals & Healthcare",
    "street": "1209 Chateau Lane",
    "city": "Hideaway",
    "state": "IL",
    "country": "US",
    "zip": 75771,
    "employees": 249,
    "latitude": 40.63312,
    "longitude": -89.3985,
    "description": "",
    "logo": ""
  },
  {
    "name": "ClearEdge Power",
    "type": "Customer - Direct",
    "industry": "Energy & Environmental",
    "street": "195 Governor?s Highway",
    "city": "South Windsor",
    "state": "CT",
    "country": "US",
    "zip": 6074,
    "employees": 60,
    "latitude": 41.83395,
    "longitude": -72.6083,
    "description": "",
    "logo": ""
  },
  {
    "name": "Novaprint",
    "type": "Customer - Direct",
    "industry": "Computer Software",
    "street": "Dardo Rocha 3168 PB Martï¿½nez",
    "city": "Buenos Aires",
    "state": 0,
    "country": "Argentina",
    "zip": "B1640",
    "employees": 52,
    "latitude": -34.4948,
    "longitude": -58.5165,
    "description": "",
    "logo": ""
  },
  {
    "name": "Total Service Solutions",
    "type": "Customer - Direct",
    "industry": "Industrial Manufacturing & Services",
    "street": "1 T & G Way",
    "city": "Blackwood",
    "state": "NJ",
    "country": "US",
    "zip": 8012,
    "employees": 99,
    "latitude": 40.22858,
    "longitude": -74.7501,
    "description": "",
    "logo": ""
  },
  {
    "name": "Danaher Corporation",
    "type": "Customer - Direct",
    "industry": "Industrial Manufacturing & Services",
    "street": "2099 Pennsylvania Ave. Nw",
    "city": "Washington",
    "state": "DC",
    "country": "United States",
    "zip": "20006-1813",
    "employees": 71000,
    "latitude": 38.90167,
    "longitude": -77.0462,
    "description": "",
    "logo": ""
  },
  {
    "name": "Ecochlor, Inc.",
    "type": "Customer - Direct",
    "industry": "Industrial Equipment and Machinery",
    "street": "14 Nason Street Suite 309",
    "city": "Maynard",
    "state": "MA",
    "country": "US",
    "zip": 1754,
    "employees": 20,
    "latitude": 42.43251,
    "longitude": -71.4539,
    "description": "",
    "logo": ""
  },
  {
    "name": "Dove Data Products, Inc.",
    "type": "Customer - Direct",
    "industry": "Industrial Manufacturing & Services",
    "street": "1819 Otis Way",
    "city": "Florence",
    "state": "SC",
    "country": "US",
    "zip": "29501-1114",
    "employees": 249,
    "latitude": 34.24286,
    "longitude": -79.7939,
    "description": "",
    "logo": ""
  },
  {
    "name": "CTE (formally known as Carolina Tractor and Equipment Company)",
    "type": "Customer - Direct",
    "industry": "Industrial Manufacturing & Services",
    "street": "9000 Statesville Road",
    "city": "Charlotte",
    "state": "NC",
    "country": "US",
    "zip": 28269,
    "employees": 2001,
    "latitude": 35.34357,
    "longitude": -80.8404,
    "description": "",
    "logo": ""
  },
  {
    "name": "Carahsoft",
    "type": "Customer - Direct",
    "industry": "Computer Hardware",
    "street": "12369 Sunrise Valley Drive, Suite D2",
    "city": "Reston",
    "state": "VA",
    "country": "US",
    "zip": 20191,
    "employees": 49,
    "latitude": 38.9482,
    "longitude": -77.3717,
    "description": "",
    "logo": ""
  },
  {
    "name": "GE OG Subsea",
    "type": "Customer - Direct",
    "industry": "Energy & Environmental",
    "street": "Silverburn House, Claymore Drive Bridge of Don",
    "city": "Aberdeen",
    "state": "CT",
    "country": "Scotland",
    "zip": "AB23 8GD",
    "employees": 2001,
    "latitude": 56.49067,
    "longitude": -4.20265,
    "description": "The world's premier digital industrial company.",
    "logo": "http://cdn3.geready.com/sites/all/themes/ge_2012/logo.png"
  },
  {
    "name": "Totally Green",
    "type": "Customer - Direct",
    "industry": "Industrial Manufacturing & Services",
    "street": "1947 Leslie St.",
    "city": "Toronto",
    "state": "ON",
    "country": "CA",
    "zip": "M3B2M3",
    "employees": 49,
    "latitude": 43.75812,
    "longitude": -79.3611,
    "description": "",
    "logo": ""
  },
  {
    "name": "Biomedical Services",
    "type": "Customer - Direct",
    "industry": "Consumer Services",
    "street": "542 Berlin Cross Keys Rd - Ste 335",
    "city": "Sicklerville",
    "state": "NJ",
    "country": "US",
    "zip": 8081,
    "employees": 10,
    "latitude": 39.75276,
    "longitude": -74.9849,
    "description": "",
    "logo": ""
  },
  {
    "name": "MAQUET Mexicana. S. De R.L. De C.V.",
    "type": "Customer - Direct",
    "industry": "Hospitals & Healthcare",
    "street": "World Trade Center Mexico City, Montecito 38, piso 10, oficina 33",
    "city": "Napoles",
    "state": "Mexico, D.F.",
    "country": "MX",
    "zip": 3810,
    "employees": 15,
    "latitude": 19.43261,
    "longitude": -99.1332,
    "description": "",
    "logo": ""
  },
  {
    "name": "Regency Lighting Enterprises, Inc.",
    "type": "Customer - Direct",
    "industry": "Consumer Products",
    "street": "9261 Jordan Avenue",
    "city": "Chatsworth",
    "state": "CA",
    "country": "US",
    "zip": 91311,
    "employees": 499,
    "latitude": 34.23848,
    "longitude": -118.605,
    "description": "",
    "logo": ""
  },
  {
    "name": "Tyco Retail Solutions",
    "type": "Customer - Direct",
    "industry": "Corporate Services",
    "street": "6600 Congress Avenue",
    "city": "Boca Raton",
    "state": "FL",
    "country": "US",
    "zip": 33487,
    "employees": 2001,
    "latitude": 26.40513,
    "longitude": -80.0998,
    "description": "",
    "logo": ""
  },
  {
    "name": "SITECH Solutions",
    "type": "Customer - Direct",
    "industry": 0,
    "street": "South st",
    "city": "Rydalmere",
    "state": "NSW",
    "country": "Australia",
    "zip": 2116,
    "employees": 49,
    "latitude": -33.8155,
    "longitude": 151.0421,
    "description": "",
    "logo": ""
  },
  {
    "name": "Chair-A-Medics, Inc.",
    "type": "Customer - Direct",
    "industry": "Medical Equipment",
    "street": "1135 Kildaire Farm Road, Suite 200",
    "city": "Cary",
    "state": "NC",
    "country": "US",
    "zip": 27511,
    "employees": 49,
    "latitude": 35.76788,
    "longitude": -78.7818,
    "description": "",
    "logo": ""
  },
  {
    "name": "Momentum Fitness Solutions",
    "type": "Customer - Direct",
    "industry": 0,
    "street": "9197 Winkler Drive, Suite C",
    "city": "Houston",
    "state": "TX",
    "country": "US",
    "zip": 77017,
    "employees": 0,
    "latitude": 29.67184,
    "longitude": -95.2527,
    "description": "",
    "logo": ""
  },
  {
    "name": "GE OG DTS",
    "type": "Customer - Direct",
    "industry": 0,
    "street": 0,
    "city": "Houston",
    "state": "Texas",
    "country": "United States",
    "zip": 0,
    "employees": 0,
    "latitude": 29.76043,
    "longitude": -95.3698,
    "description": "The world's premier digital industrial company.",
    "logo": "http://cdn3.geready.com/sites/all/themes/ge_2012/logo.png"
  },
  {
    "name": "Robovent",
    "type": "Customer - Direct",
    "industry": "Construction & Building Materials",
    "street": "37900 Mound Rd.",
    "city": "Sterling Heights",
    "state": "MI",
    "country": "US",
    "zip": 48310,
    "employees": 100,
    "latitude": 42.57204,
    "longitude": -83.0482,
    "description": "",
    "logo": ""
  },
  {
    "name": "Alimak Hek, Inc.",
    "type": "Customer - Direct",
    "industry": "Construction & Building Materials",
    "street": "12552 Old Galveston Road, Ste A-160",
    "city": "Webster",
    "state": "TX",
    "country": "US",
    "zip": 77598,
    "employees": 75,
    "latitude": 29.59241,
    "longitude": -95.1693,
    "description": "",
    "logo": ""
  },
  {
    "name": "Sibelga Scrl",
    "type": "Customer - Direct",
    "industry": "Electricity Transmission & Distribution",
    "street": "Quai des Usines 16",
    "city": "Brussels",
    "state": 0,
    "country": "Belgium",
    "zip": 1000,
    "employees": 1000,
    "latitude": 50.87355,
    "longitude": 4.362556,
    "description": "",
    "logo": ""
  },
  {
    "name": "PMC refrigeration",
    "type": "Customer - Direct",
    "industry": "Construction & Building Materials",
    "street": "4396 Roseville Rd",
    "city": "North Highlands",
    "state": "CA",
    "country": "United States",
    "zip": "95660-5711",
    "employees": 80,
    "latitude": 38.6477,
    "longitude": -121.394,
    "description": "",
    "logo": ""
  },
  {
    "name": "GE HC Lifescience",
    "type": "Customer - Direct",
    "industry": "Hospitals & Healthcare",
    "street": "800 Centennial Avenue P.O. Box 1327",
    "city": "Piscataway",
    "state": "NJ",
    "country": "US",
    "zip": "08855-1327",
    "employees": 46000,
    "latitude": 40.54666,
    "longitude": -74.4899,
    "description": "The world's premier digital industrial company.",
    "logo": "http://cdn3.geready.com/sites/all/themes/ge_2012/logo.png"
  },
  {
    "name": "GE HC HCIT Europe",
    "type": "Customer - Direct",
    "industry": "Hospitals & Healthcare",
    "street": "Pollards Wood Nightingales Lane",
    "city": "Chalfont St. Giles",
    "state": 0,
    "country": "United Kingdom",
    "zip": "HP8 4SP",
    "employees": 46000,
    "latitude": 51.65545,
    "longitude": -0.57173,
    "description": "The world's premier digital industrial company.",
    "logo": "http://cdn3.geready.com/sites/all/themes/ge_2012/logo.png"
  },
  {
    "name": "Beverage Metrics",
    "type": "Customer - Direct",
    "industry": "Industrial Manufacturing & Services",
    "street": 0,
    "city": 0,
    "state": 0,
    "country": "Dominican Republic",
    "zip": 0,
    "employees": 0,
    "latitude": 18.73569,
    "longitude": -70.1627,
    "description": "",
    "logo": ""
  },
  {
    "name": "Videlio IEC",
    "type": "Customer - Direct",
    "industry": "Corporate Services",
    "street": "27/41 Boulevard Louise Michel Zone actiwest",
    "city": "Gennevilliers",
    "state": 0,
    "country": "France",
    "zip": 92635,
    "employees": 800,
    "latitude": 48.92553,
    "longitude": 2.293275,
    "description": "",
    "logo": ""
  },
  {
    "name": "Marlen International",
    "type": "Customer - Direct",
    "industry": "Industrial Manufacturing & Services",
    "street": "9202 Barton Street",
    "city": "Overland Park",
    "state": "KS",
    "country": "US",
    "zip": "66214-1721",
    "employees": 50,
    "latitude": 38.83763,
    "longitude": -94.7151,
    "description": "",
    "logo": ""
  },
  {
    "name": "Oraya Therapeutics",
    "type": "Customer - Direct",
    "industry": "Hospitals & Healthcare",
    "street": "8000 Jarvis Avenue Suite 200",
    "city": "Newark",
    "state": "CA",
    "country": "US",
    "zip": 94560,
    "employees": 60,
    "latitude": 37.53641,
    "longitude": -122.061,
    "description": "",
    "logo": ""
  },
  {
    "name": "GE HC HCS Global Services",
    "type": "Customer - Direct",
    "industry": "Hospitals & Healthcare",
    "street": "3000 Grandview Boulevard",
    "city": "Waukesha",
    "state": "WI",
    "country": "US",
    "zip": 53188,
    "employees": 46000,
    "latitude": 43.05167,
    "longitude": -88.2596,
    "description": "The world's premier digital industrial company.",
    "logo": "http://cdn3.geready.com/sites/all/themes/ge_2012/logo.png"
  },
  {
    "name": "Main Street Broadband",
    "type": "Customer - Direct",
    "industry": "Computer Software",
    "street": "945 E. Paces Ferry Rd. NE Suite 2200",
    "city": "Atlanta",
    "state": "GA",
    "country": "US",
    "zip": 30326,
    "employees": 28,
    "latitude": 33.84651,
    "longitude": -84.3561,
    "description": "",
    "logo": ""
  },
  {
    "name": "GETINGE USA, INC.",
    "type": "Customer - Direct",
    "industry": "Hospitals & Healthcare",
    "street": "1777 East Henrietta Road",
    "city": "Rochester",
    "state": "NY",
    "country": "United States",
    "zip": 14623,
    "employees": 600,
    "latitude": 43.08468,
    "longitude": -77.6109,
    "description": "",
    "logo": ""
  },
  {
    "name": "SKF USA, Inc.",
    "type": "Customer - Direct",
    "industry": "Industrial Manufacturing & Services",
    "street": "890 Forty Foot Rd.",
    "city": "Lansdale",
    "state": "PA",
    "country": "US",
    "zip": 19446,
    "employees": 4000,
    "latitude": 40.25674,
    "longitude": -75.3295,
    "description": "",
    "logo": ""
  },
  {
    "name": "Pengate Handling Systems Inc",
    "type": "Customer - Direct",
    "industry": "Industrial Manufacturing & Services",
    "street": "3 Interchange Pl",
    "city": "York",
    "state": "PA",
    "country": "US",
    "zip": "17406-5617",
    "employees": 60,
    "latitude": 40.01944,
    "longitude": -76.7411,
    "description": "",
    "logo": ""
  },
  {
    "name": "Hannon Hydraulics, LLC",
    "type": "Customer - Direct",
    "industry": "Industrial Manufacturing & Services",
    "street": "625 North Loop 12",
    "city": "Irving",
    "state": "TX",
    "country": "US",
    "zip": "75061-8796",
    "employees": 70,
    "latitude": 32.82104,
    "longitude": -96.9223,
    "description": "",
    "logo": ""
  },
  {
    "name": "PEAK Elevator Performance Group",
    "type": "Customer - Direct",
    "industry": 0,
    "street": "5156 W 58th Ave",
    "city": "Arvada",
    "state": "CO",
    "country": "US",
    "zip": 80002,
    "employees": 36,
    "latitude": 39.80133,
    "longitude": -105.052,
    "description": "",
    "logo": ""
  },
  {
    "name": "Elbert Construction",
    "type": "Customer - Direct",
    "industry": "Construction & Building Materials",
    "street": "15322 Herriman Blvd",
    "city": "Noblesville",
    "state": "IN",
    "country": "US",
    "zip": 46060,
    "employees": 15,
    "latitude": 40.01176,
    "longitude": -86.0043,
    "description": "",
    "logo": ""
  },
  {
    "name": "Mark Andy, Inc.",
    "type": "Customer - Direct",
    "industry": "Industrial Manufacturing & Services",
    "street": "18081 Chesterfield Airport Road",
    "city": "St. Louis",
    "state": "MO",
    "country": "US",
    "zip": 63005,
    "employees": 300,
    "latitude": 38.67093,
    "longitude": -90.6373,
    "description": "",
    "logo": ""
  },
  {
    "name": "IPG Photonics Corporation",
    "type": "Customer - Direct",
    "industry": "Electronics",
    "street": "50 Old Webster Road",
    "city": "Oxford",
    "state": "MA",
    "country": "US",
    "zip": 1540,
    "employees": 2137,
    "latitude": 42.08118,
    "longitude": -71.8811,
    "description": "",
    "logo": ""
  },
  {
    "name": "SpaRove.com",
    "type": "Customer - Direct",
    "industry": 0,
    "street": "1403 E 3rd St #B",
    "city": "Austin",
    "state": "TX",
    "country": "US",
    "zip": 78702,
    "employees": 5,
    "latitude": 30.2607,
    "longitude": -97.7297,
    "description": "",
    "logo": ""
  },
  {
    "name": "CEM Corporation",
    "type": "Customer - Direct",
    "industry": "Industrial Manufacturing & Services",
    "street": "3100 Smith Farm Rd",
    "city": "Matthews",
    "state": "NC",
    "country": "US",
    "zip": 28106,
    "employees": 325,
    "latitude": 35.09034,
    "longitude": -80.6831,
    "description": "",
    "logo": ""
  },
  {
    "name": "Cater Repair",
    "type": "Customer - Direct",
    "industry": "Industrial Manufacturing & Services",
    "street": "1/74 seam st mansfield",
    "city": "Brisbane",
    "state": "Brisbane",
    "country": "Australia",
    "zip": 4122,
    "employees": 10,
    "latitude": -27.5281,
    "longitude": 153.0988,
    "description": "",
    "logo": ""
  },
  {
    "name": "Performance Electrical & Plumbing",
    "type": "Customer - Direct",
    "industry": "HVAC",
    "street": "4609 Glass Court Suite 1",
    "city": "Modesto",
    "state": "CA",
    "country": "US",
    "zip": 95356,
    "employees": 10,
    "latitude": 37.706,
    "longitude": -121.001,
    "description": "",
    "logo": ""
  },
  {
    "name": "LasX Industries",
    "type": "Customer - Direct",
    "industry": "Industrial Manufacturing & Services",
    "street": "4444 Centerville Rd. Ste 170",
    "city": "White Bear Lake",
    "state": "MN",
    "country": "US",
    "zip": 55127,
    "employees": 60,
    "latitude": 45.07515,
    "longitude": -93.0549,
    "description": "",
    "logo": ""
  },
  {
    "name": "ATTICARE CORP.",
    "type": "Customer - Direct",
    "industry": 0,
    "street": "985 66th Ave",
    "city": "Oakland",
    "state": "CA",
    "country": "US",
    "zip": 94621,
    "employees": 35,
    "latitude": 37.75867,
    "longitude": -122.198,
    "description": "",
    "logo": ""
  },
  {
    "name": "Cypress Creek Renewables, LLC",
    "type": "Customer - Direct",
    "industry": "Cogeneration and Small Power Producers",
    "street": "3250 Ocean Park Boulevard Suite 355",
    "city": "Santa Monica",
    "state": "CA",
    "country": "United States",
    "zip": 90405,
    "employees": 99,
    "latitude": 34.02062,
    "longitude": -118.451,
    "description": "",
    "logo": ""
  },
  {
    "name": "MSI Mechanical Systems Inc.",
    "type": "Customer - Direct",
    "industry": "HVAC",
    "street": "10 Delaware Dr # 12",
    "city": "Salem",
    "state": "NH",
    "country": "US",
    "zip": "03079-4060",
    "employees": 51,
    "latitude": 42.76315,
    "longitude": -71.2422,
    "description": "",
    "logo": ""
  },
  {
    "name": "M.C. Dean, Inc",
    "type": "Customer - Direct",
    "industry": "Construction & Building Materials",
    "street": "22461 Shaw Road",
    "city": "Dulles",
    "state": "VA",
    "country": "US",
    "zip": 20166,
    "employees": 1500,
    "latitude": 38.99291,
    "longitude": -77.4316,
    "description": "",
    "logo": ""
  },
  {
    "name": "Sciex",
    "type": "Customer - Direct",
    "industry": "Hospitals & Healthcare",
    "street": "500 Old Connecticut Path",
    "city": "Framingham",
    "state": "MA",
    "country": "US",
    "zip": 1701,
    "employees": 2001,
    "latitude": 42.31536,
    "longitude": -71.3944,
    "description": "",
    "logo": ""
  },
  {
    "name": "Milacron Holdings Corp.",
    "type": "Customer - Direct",
    "industry": "Industrial Manufacturing & Services",
    "street": "4165 Half Acre Road",
    "city": "Batavia",
    "state": "OH",
    "country": "United States",
    "zip": 45103,
    "employees": 2000,
    "latitude": 39.06474,
    "longitude": -84.1013,
    "description": "",
    "logo": ""
  },
  {
    "name": "Janet Moyer Landscaping",
    "type": "Customer - Direct",
    "industry": "Crops & Agriculture Production",
    "street": "1031 Valencia St",
    "city": "San Francisco",
    "state": "CA",
    "country": "US",
    "zip": "94110-2405",
    "employees": 7,
    "latitude": 37.75642,
    "longitude": -122.421,
    "description": "",
    "logo": ""
  },
  {
    "name": "Fortis Battery Care Ltd",
    "type": "Customer - Direct",
    "industry": "Industrial Manufacturing & Services",
    "street": "15 Sherwood Networkcentre, Sherwood Energy Village, Newton Hill",
    "city": "Ollerton",
    "state": 0,
    "country": "UK",
    "zip": "NG22 9FD",
    "employees": 49,
    "latitude": 53.2041,
    "longitude": -1.02058,
    "description": "",
    "logo": ""
  },
  {
    "name": "Monterey Research Associates DBA Monterey Automation",
    "type": "Customer - Direct",
    "industry": 0,
    "street": "9855 Double R Blvd Suite 105",
    "city": "Reno",
    "state": "NV",
    "country": "United States",
    "zip": 89521,
    "employees": 5,
    "latitude": 39.44147,
    "longitude": -119.76,
    "description": "",
    "logo": ""
  },
  {
    "name": "SPP Pumps Ltd.",
    "type": "Customer - Direct",
    "industry": "Industrial Manufacturing & Services",
    "street": "1420 Lakeview Arlington Business Park Theale",
    "city": "Reading",
    "state": "Berkshire",
    "country": "United Kingdom",
    "zip": "rg31 7sp",
    "employees": 343,
    "latitude": 32.71637,
    "longitude": -97.147,
    "description": "",
    "logo": ""
  },
  {
    "name": "SPECTRO Analytical Instruments GmbH",
    "type": "Customer - Direct",
    "industry": "Industrial Manufacturing & Services",
    "street": "Boschstr. 10",
    "city": "Kleve",
    "state": "Hessen",
    "country": "Germany",
    "zip": 47533,
    "employees": 600,
    "latitude": 51.80843,
    "longitude": 6.14164,
    "description": "",
    "logo": ""
  },
  {
    "name": "GE: RE Onshore (formerly GE: RE Wind)",
    "type": "Customer - Direct",
    "industry": "Industrial Manufacturing & Services",
    "street": "W3013 Sunshine Rd",
    "city": "Freedom",
    "state": "WI",
    "country": "US",
    "zip": 54130,
    "employees": 2001,
    "latitude": 44.39845,
    "longitude": -88.3384,
    "description": "",
    "logo": ""
  },
  {
    "name": "Portable CIO",
    "type": "Customer - Direct",
    "industry": "Computer Hardware",
    "street": "172 Vï¿½a Serena",
    "city": "Alamo",
    "state": "CA",
    "country": "US",
    "zip": 94507,
    "employees": 7,
    "latitude": 37.84656,
    "longitude": -122.033,
    "description": "",
    "logo": ""
  },
  {
    "name": "Metro Fire Apparatus Specialists",
    "type": "Customer - Direct",
    "industry": "Fabricated Rubber Products",
    "street": "17350 SH 249, Ste 249",
    "city": "Houston",
    "state": "TX",
    "country": "US",
    "zip": 77064,
    "employees": 45,
    "latitude": 29.95714,
    "longitude": -95.5417,
    "description": "",
    "logo": ""
  },
  {
    "name": "Xtandit B.V.",
    "type": "Customer - Direct",
    "industry": "Retail - Electronics Products",
    "street": "Oostzee 2 - 4",
    "city": "Woerden",
    "state": "Noord-Holland",
    "country": "Netherlands",
    "zip": "3446 CH",
    "employees": 249,
    "latitude": 52.52059,
    "longitude": 4.788474,
    "description": "",
    "logo": ""
  },
  {
    "name": "Sencorp Inc.",
    "type": "Customer - Direct",
    "industry": "Industrial Manufacturing & Services",
    "street": "400 Kidds Hill Road",
    "city": "Hyannis",
    "state": "MA",
    "country": "US",
    "zip": 2601,
    "employees": 170,
    "latitude": 41.68053,
    "longitude": -70.2973,
    "description": "",
    "logo": ""
  },
  {
    "name": "Platform Lift Company",
    "type": "Customer - Direct",
    "industry": "Industrial Manufacturing & Services",
    "street": "Unit 1, 28-34 Roseberry Street, Balgowlah, NSW 2093",
    "city": 0,
    "state": "NSW",
    "country": "AU",
    "zip": 0,
    "employees": 60,
    "latitude": -33.7877,
    "longitude": 151.2685,
    "description": "",
    "logo": ""
  },
  {
    "name": "Lang's Ventures Inc",
    "type": "Customer - Direct",
    "industry": "Corporate Services",
    "street": 0,
    "city": "Kelowna",
    "state": "BC",
    "country": "Canada",
    "zip": 0,
    "employees": 51,
    "latitude": 49.88795,
    "longitude": -119.496,
    "description": "",
    "logo": ""
  },
  {
    "name": "Hexagon Metrology Italy",
    "type": "Customer - Direct",
    "industry": "HVAC",
    "street": "Strada del Portone, 113",
    "city": "Grugliasco",
    "state": "Piemonte",
    "country": "Italy",
    "zip": 10095,
    "employees": 100,
    "latitude": 45.04665,
    "longitude": 7.583507,
    "description": "",
    "logo": ""
  },
  {
    "name": "Carolina Kitchens Inc",
    "type": "Customer - Direct",
    "industry": "Construction & Building Materials",
    "street": "310 Trace Run",
    "city": "Myrtle Beach",
    "state": "SC",
    "country": "US",
    "zip": 29588,
    "employees": 10,
    "latitude": 33.65073,
    "longitude": -79.0374,
    "description": "",
    "logo": ""
  },
  {
    "name": "Broad Point Energy",
    "type": "Customer - Direct",
    "industry": "Corporate Services",
    "street": "PO Box 11725",
    "city": "New Iberia",
    "state": "LA",
    "country": "US",
    "zip": 70562,
    "employees": 12,
    "latitude": 30.00354,
    "longitude": -91.8187,
    "description": "",
    "logo": ""
  },
  {
    "name": "Wellness Solutions",
    "type": "Customer - Direct",
    "industry": "Other",
    "street": "4224 Bragg Street",
    "city": "The Plains",
    "state": "VA",
    "country": "US",
    "zip": 20198,
    "employees": 8,
    "latitude": 38.86306,
    "longitude": -77.7741,
    "description": "",
    "logo": ""
  },
  {
    "name": "Power Plus",
    "type": "Customer - Direct",
    "industry": "Energy & Environmental",
    "street": 0,
    "city": "Madison",
    "state": "WI",
    "country": "US",
    "zip": 48840,
    "employees": 20,
    "latitude": 43.07305,
    "longitude": -89.4012,
    "description": "",
    "logo": ""
  },
  {
    "name": "Teletrac Navman",
    "type": "Customer - Direct",
    "industry": "Computer Software",
    "street": "137 Aero Camino",
    "city": "Santa Barbara",
    "state": "CA",
    "country": "US",
    "zip": "93117-3149",
    "employees": 501,
    "latitude": 34.43332,
    "longitude": -119.849,
    "description": "",
    "logo": ""
  },
  {
    "name": "Milestone Inc",
    "type": "Customer - Direct",
    "industry": "Industrial Manufacturing & Services",
    "street": "25 Controls Drive",
    "city": "Shelton",
    "state": "CT",
    "country": "US",
    "zip": 6484,
    "employees": 50,
    "latitude": 41.28396,
    "longitude": -73.108,
    "description": "",
    "logo": ""
  }
]